[{"address":"健康路1号","lonlat":"106.542157874,29.554858305","name":"重庆市第四人民医院","phone":"023-63692008","lon":106.542157874,"lat":29.554858305},{"address":"嘉陵桥西村83","lonlat":"106.541503148,29.563150566","name":"重庆邮政医院","phone":null,"lon":106.541503148,"lat":29.563150566},{"address":"健康路1号","lonlat":"106.542787,29.555998","name":"重庆市急救医疗中心","phone":"023-63862362","lon":106.542787,"lat":29.555998},{"address":"重庆市渝中区解放碑街道大井巷社区","lonlat":"106.567863574,29.563122652","name":"临江门医院","phone":null,"lon":106.567863574,"lat":29.563122652},{"address":"道门口40号","lonlat":"106.580184,29.561258","name":"重庆市第一人民医院","phone":"023-63841324","lon":106.580184,"lat":29.561258},{"address":"重庆市渝中区解放碑街道罗汉寺社区新华路142号附3号","lonlat":"106.578291302,29.560992887","name":"重庆朝天门医院","phone":"023-63662577","lon":106.578291302,"lat":29.560992887},{"address":"解放东路128号","lonlat":"106.579960507,29.558479493","name":"重庆大安中西医结合医院","phone":null,"lon":106.579960507,"lat":29.558479493},{"address":"重庆市渝中区枇杷山正街104号","lonlat":"106.551311232,29.556171018","name":"重庆市人民医院(重庆市临床检验中心)","phone":"023-63522573","lon":106.551311232,"lat":29.556171018},{"address":"中山一路314","lonlat":"106.555267,29.55898","name":"中国科学院大学重庆医院中山院区","phone":null,"lon":106.555267,"lat":29.55898},{"address":"重庆市渝中区石油路街道新影村社区经纬大道770号","lonlat":"106.499878616,29.548226525","name":"重庆红岭医院","phone":"023-68576857","lon":106.499878616,"lat":29.548226525},{"address":"长江支路10号","lonlat":"106.51861,29.5454","name":"大坪医院","phone":"023-68811229","lon":106.51861,"lat":29.5454},{"address":"健康路1号","lonlat":"106.542344,29.554945","name":"重庆大学附属中心医院","phone":"023-63692009","lon":106.542344,"lat":29.554945},{"address":"大坪正街162号","lonlat":"106.50076,29.539491","name":"重庆长航医院","phone":"023-68582485","lon":106.50076,"lat":29.539491},{"address":"友谊路1号","lonlat":"106.50932,29.53272","name":"重庆医科大学附属第一医院","phone":"023-68899000","lon":106.50932,"lat":29.53272},{"address":"临江路74号","lonlat":"106.571154682,29.563003485","name":"重庆医科大学附属第二医院","phone":"023-63693000","lon":106.571154682,"lat":29.563003485},{"address":"人民路59","lonlat":"106.553529,29.566265","name":"渝中区第四人民医院","phone":"023-63635925","lon":106.553529,"lat":29.566265},{"address":"中山一路314","lonlat":"106.555673,29.558914","name":"重庆市人民医院中山院区","phone":"023-63515796","lon":106.555673,"lat":29.558914},{"address":"解放西路9","lonlat":"106.573484,29.553002","name":"渝中区人民医院","phone":"023-63533165","lon":106.573484,"lat":29.553002},{"address":"人民路191","lonlat":"106.5478,29.56332","name":"重庆市医科大学附属第一医院第一分院","phone":"023-63860120","lon":106.5478,"lat":29.56332},{"address":"大坪支路19号","lonlat":"106.510854308,29.541397589","name":"重庆电信职工医院","phone":"023-68891988","lon":106.510854308,"lat":29.541397589},{"address":"重庆市渝中区两路口街道重庆村社区中山二路200号","lonlat":"106.548577226,29.556278585","name":"重庆市人民医院三院院区","phone":"023-63509491|023-63513364","lon":106.548577226,"lat":29.556278585}]
