[{"address":"北区路26号5楼","lonlat":"106.564979518,29.564667132","name":"哈佛眼科","phone":"023-63507888","lon":106.564979518,"lat":29.564667132},{"address":"袁家岗友谊路1号","lonlat":"106.507966005,29.533217699","name":"重庆市癫痫病中心","phone":null,"lon":106.507966005,"lat":29.533217699},{"address":"临江支路28","lonlat":"106.574982,29.563756","name":"重庆联合丽格美容医院","phone":"023-68726872","lon":106.574982,"lat":29.563756},{"address":"渝中区民生路345号兴利大厦2、3层","lonlat":"106.571108654,29.560283504","name":"重庆牙科医院","phone":"023-63829442","lon":106.571108654,"lat":29.560283504},{"address":"渝中区大坪正街160号2幢4层","lonlat":"106.500412,29.542038","name":"重庆全红中医院","phone":"023-68580002","lon":106.500412,"lat":29.542038},{"address":"渝中区新华路489号（门诊）","lonlat":"106.57287,29.55538","name":"重庆市中医骨科医院","phone":"023-63930833","lon":106.57287,"lat":29.55538},{"address":"大坪正街160号渝中万科中心4F","lonlat":"106.501685,29.53998","name":"重庆全红中医院","phone":"023-68580002","lon":106.501685,"lat":29.53998},{"address":"两路口新干线大厦A座","lonlat":"106.54421,29.55588","name":"重庆中德生殖医院","phone":"023-68728888|15025392816","lon":106.54421,"lat":29.55588},{"address":"枇杷山正街118号","lonlat":"106.549483,29.556293","name":"重庆市骨伤骨病医疗中心","phone":null,"lon":106.549483,"lat":29.556293},{"address":"经纬大道772","lonlat":"106.49947,29.5481","name":"重庆仁品耳鼻喉医院","phone":"023-68592655","lon":106.49947,"lat":29.5481},{"address":"重庆市渝中区两路口新村55号渝开发新干线大厦1、2层","lonlat":"106.53758,29.556915","name":"重庆医博肛肠医院","phone":"023-68728888","lon":106.53758,"lat":29.556915},{"address":"长江二路77号","lonlat":"106.515563,29.5425","name":"重庆眼视光眼科医院","phone":"023-68770120","lon":106.515563,"lat":29.5425},{"address":"上清寺路7号","lonlat":"106.542746,29.562297","name":"重庆医科大学口腔医学院","phone":"023-89035821","lon":106.542746,"lat":29.562297},{"address":null,"lonlat":"106.50349,29.5526","name":"重庆市中医骨科医院","phone":null,"lon":106.50349,"lat":29.5526},{"address":"筷子街2号中国人寿大厦11层","lonlat":"106.57873,29.56273","name":"潘多拉整形美容","phone":"023-63726003","lon":106.57873,"lat":29.56273},{"address":"金汤街64号","lonlat":"106.56276,29.55697","name":"重庆市妇产科医院","phone":"023-63846879","lon":106.56276,"lat":29.55697},{"address":"渝中区解放西路9号（住院部）","lonlat":"106.5734,29.55294","name":"重庆市中医骨科医院","phone":"023-63930833","lon":106.5734,"lat":29.55294},{"address":"临江路76号","lonlat":"106.570652667,29.562679404","name":"重庆市聚焦超声肿瘤治疗中心","phone":null,"lon":106.570652667,"lat":29.562679404},{"address":"上清寺路112号","lonlat":"106.538784,29.560654","name":"重庆国恩中医医院","phone":"023-63325999","lon":106.538784,"lat":29.560654},{"address":"龙湖时代星空4号楼1110/1111","lonlat":"106.508854,29.540904","name":"重庆忠文整形美容","phone":null,"lon":106.508854,"lat":29.540904},{"address":"重庆渝中区一号桥北区路24号","lonlat":"106.565260616,29.564639349","name":"重庆口腔种值牙医院","phone":null,"lon":106.565260616,"lat":29.564639349},{"address":"中山一路183号","lonlat":"106.55642,29.55809","name":"重庆军美医疗美容医院","phone":"023-63925555","lon":106.55642,"lat":29.55809},{"address":"南区路125号","lonlat":"106.550831663,29.554159779","name":"重庆诚嘉口腔专科医院","phone":"023-61202288|13823396725","lon":106.550831663,"lat":29.554159779},{"address":"渝中区新民街2号","lonlat":"106.56803,29.55831","name":"渝中区妇幼保健计划生育服务中心","phone":"023-63842837","lon":106.56803,"lat":29.55831},{"address":"中山二路136号重庆医科大学附属儿童医院7号楼302","lonlat":"106.550097,29.559382","name":"重庆市新生儿疾病筛查中心","phone":"023-63621942","lon":106.550097,"lat":29.559382},{"address":"重庆市渝中区解放碑街道较场口社区民权路89号日月光中心广场2楼2017","lonlat":"106.567252711,29.557437176","name":"星天地医疗美容","phone":"023-63891195|023-63861882","lon":106.567252711,"lat":29.557437176},{"address":"袁家岗友谊路1号","lonlat":"106.507966005,29.533217699","name":"重庆市肺部肿瘤综合治疗中心","phone":"023-68898698","lon":106.507966005,"lat":29.533217699},{"address":"青年路7号时代豪苑擎天阁D座20层20-1/2","lonlat":"106.57287,29.56092","name":"重庆琦品美业名媛微整形美容会所","phone":null,"lon":106.57287,"lat":29.56092},{"address":"临江支路2号合景大厦A栋3楼","lonlat":"106.57557,29.56316","name":"臻瑞医疗美容连锁","phone":"023-60333939","lon":106.57557,"lat":29.56316},{"address":"五四路28号赛格尔国际大厦11楼","lonlat":"106.57329,29.56191","name":"赛格尔整形美容","phone":null,"lon":106.57329,"lat":29.56191},{"address":"青年路3号时代豪苑A座8层","lonlat":"106.57321,29.56134","name":"江之南医疗整形美容","phone":null,"lon":106.57321,"lat":29.56134},{"address":"上清寺路39号附1号","lonlat":"106.54153,29.561064","name":"重庆新视界渝中眼科医院","phone":"023-68158888|18908322750","lon":106.54153,"lat":29.561064},{"address":"长江二路10号","lonlat":"106.52238,29.5452","name":"重庆圣佑肛肠医院","phone":"023-63329999","lon":106.52238,"lat":29.5452},{"address":"鹅岭正街187号","lonlat":"106.530021075,29.551048772","name":"鹅岭骨质增生专科医院","phone":"023-63672669|023-68761601","lon":106.530021075,"lat":29.551048772},{"address":"大坪正街162号重庆长航医院-长乐楼9F","lonlat":"106.500844,29.539223","name":"重庆朕尔职业病康复医院","phone":"023-63245961","lon":106.500844,"lat":29.539223},{"address":"重庆市渝中区朝天门街道二府衙社区道门口40号","lonlat":"106.580566,29.561163","name":"重庆市中医院道门口院部","phone":"023-63731325|023-63834126","lon":106.580566,"lat":29.561163},{"address":"华一坡33","lonlat":"106.564036,29.561268","name":"重庆医科大学附属第二医院宽仁康复医院","phone":"023-63311333","lon":106.564036,"lat":29.561268},{"address":"长江一路60号铂金时代大厦(地铁1号线鹅岭站2B出口)","lonlat":"106.532358103,29.549326782","name":"重庆雷纳广济眼科医院","phone":"023-63035537","lon":106.532358103,"lat":29.549326782},{"address":"大坪村2号","lonlat":"106.516848,29.542621","name":"大坪中医院","phone":"023-68890079","lon":106.516848,"lat":29.542621},{"address":"上清寺路39号附2号","lonlat":"106.541341,29.560973","name":"重庆国宾妇产医院","phone":"023-86899999|023-63855555","lon":106.541341,"lat":29.560973},{"address":"重庆市渝中区七星岗街道临华路社区中山一路210号","lonlat":"106.557714258,29.558508579","name":"重庆普瑞眼科医院","phone":"023-63508383","lon":106.557714258,"lat":29.558508579},{"address":"上清寺路9","lonlat":"106.542502724,29.561671403","name":"重庆华美整形美容医院","phone":"023-63851155","lon":106.542502724,"lat":29.561671403},{"address":"八一路108号纽约·纽约大厦3~5F/20F","lonlat":"106.57465,29.5608","name":"铜雀台韩国整形医院","phone":"023-63808880","lon":106.57465,"lat":29.5608},{"address":"枇杷山正街118号","lonlat":"106.54949,29.55632","name":"重庆市眼耳鼻咽喉科医院","phone":"023-63514083","lon":106.54949,"lat":29.55632},{"address":"七星岗新德村44号","lonlat":"106.559714,29.55963","name":"重庆市中西医结合康复医院","phone":"023-63512882","lon":106.559714,"lat":29.55963},{"address":"重庆市渝中区七星岗街道金汤街社区金汤街64号","lonlat":"106.562638,29.556616","name":"重庆市妇幼保健院七星岗院区","phone":"023-63702844|023-63703054|023-63840868","lon":106.562638,"lat":29.556616}]
