[{"address":"渝中区桂花园88号","lonlat":"106.537928,29.558597","name":"大田湾小学校","phone":"023-61754308","lon":106.537928,"lat":29.558597},{"address":"渝中区新华路90号","lonlat":"106.579127,29.56246","name":"渝中区新华小学校","phone":"023-63842381","lon":106.579127,"lat":29.56246},{"address":"渝中区朝东路128号","lonlat":"106.583346054,29.562606239","name":"东水门小学","phone":"023-63735240","lon":106.583346054,"lat":29.562606239},{"address":"重庆市渝中区七星岗街道抗建堂社区枇杷山正街89","lonlat":"106.55591,29.5553","name":"精一民族小学校","phone":null,"lon":106.55591,"lat":29.5553},{"address":"渝中区大同路10号","lonlat":"106.569365,29.56068","name":"大同实验学校","phone":"023-63267749","lon":106.569365,"lat":29.56068},{"address":"渝中区西来寺13号","lonlat":"106.567322,29.561258","name":"临江路小学","phone":"023-63722973","lon":106.567322,"lat":29.561258},{"address":"渝中区上纯阳洞54号","lonlat":"106.555812,29.557248","name":"枇杷山小学校","phone":"023-63515865","lon":106.555812,"lat":29.557248},{"address":"渝中区西三街12号?","lonlat":"106.5786,29.559099","name":"望龙门小学校","phone":"023-63922263","lon":106.5786,"lat":29.559099},{"address":"渝中区鹅岭正街175号","lonlat":"106.531891453,29.550604571","name":"鹅岭小学","phone":"023-63671823","lon":106.531891453,"lat":29.550604571},{"address":"渝中区放牛巷67号","lonlat":"106.564308,29.555597","name":"金马小学校","phone":"023-63815287","lon":106.564308,"lat":29.555597},{"address":"渝中区大溪沟人民路2号","lonlat":"106.556167629,29.566862426","name":"人民路小学","phone":"023-63629356","lon":106.556167629,"lat":29.566862426},{"address":"渝中区上清寺中山四路73号","lonlat":"106.542963,29.566237","name":"德精小学校","phone":"023-63802346","lon":106.542963,"lat":29.566237},{"address":"重庆市渝中区鲁祖庙14号","lonlat":"106.5694363,29.558741735","name":"民生路小学校","phone":null,"lon":106.5694363,"lat":29.558741735},{"address":"渝中区中山四路11号","lonlat":"106.542171,29.565","name":"人民小学校","phone":"023-68362100","lon":106.542171,"lat":29.565},{"address":"渝中区建兴一巷４４号","lonlat":"106.543568,29.554509","name":"肖家沟小学校","phone":"023-63879642","lon":106.543568,"lat":29.554509},{"address":"渝中区解放西路75号","lonlat":"106.572458,29.552053","name":"渝中区解放西路小学校","phone":"023-63929695","lon":106.572458,"lat":29.552053},{"address":"渝中区解放东路160号","lonlat":"106.578363,29.556196","name":"鼓楼人和街小学","phone":"023-61755509","lon":106.578363,"lat":29.556196},{"address":"渝中区中兴路3号","lonlat":"106.56858,29.55551","name":"精一民族小学校","phone":"023-63842210","lon":106.56858,"lat":29.55551},{"address":"渝中区肖家湾电视塔村56号","lonlat":"106.520572,29.545581","name":"渝中区解放小学","phone":"023-61764260","lon":106.520572,"lat":29.545581},{"address":"富华路31号","lonlat":"106.496631,29.556521","name":"重庆天地人和街小学校","phone":"023-63635830","lon":106.496631,"lat":29.556521},{"address":"渝中区上曾家岩52号","lonlat":"106.548890411,29.567718902","name":"曾家岩小学","phone":"023-63900174","lon":106.548890411,"lat":29.567718902},{"address":"渝中区新影村33号","lonlat":"106.497768891,29.547044036","name":"石油路小学","phone":"023-68590602","lon":106.497768891,"lat":29.547044036},{"address":"渝中区大坪支路42号","lonlat":"106.510266,29.540235","name":"马家堡小学","phone":"023-60371038","lon":106.510266,"lat":29.540235},{"address":"渝中区人和街43号","lonlat":"106.553915758,29.563474202","name":"人和街小学","phone":"023-63894380","lon":106.553915758,"lat":29.563474202},{"address":"渝中区新德村266号","lonlat":"106.561046795,29.559862192","name":"邹容小学","phone":"023-63878700","lon":106.561046795,"lat":29.559862192},{"address":"渝中区化龙桥瑞天路41号","lonlat":"106.50276087,29.554202881","name":"红岩小学","phone":"023-61756898","lon":106.50276087,"lat":29.554202881},{"address":"渝中区学田湾正街48号","lonlat":"106.54789,29.5623","name":"枣子岚垭小学校","phone":"023-63865519","lon":106.54789,"lat":29.5623},{"address":"渝中区和平路240号","lonlat":"106.56478005,29.557422825","name":"中华路小学","phone":"023-63825904-8028","lon":106.56478005,"lat":29.557422825},{"address":"渝中区巴教村15号","lonlat":"106.55594,29.56147","name":"巴蜀小学校","phone":"023-63526938","lon":106.55594,"lat":29.56147},{"address":"渝中区捍卫路47号","lonlat":"106.557491,29.560495","name":"中山小学校","phone":"023-88105649","lon":106.557491,"lat":29.560495},{"address":"渝中区鹅岭正街14号","lonlat":"106.537262,29.552349","name":"两路口小学","phone":"023-63670628","lon":106.537262,"lat":29.552349},{"address":"渝中区大坪正街54号","lonlat":"106.513911108,29.544287274","name":"大坪小学校","phone":"023-68816325","lon":106.513911108,"lat":29.544287274}]
