[{"address":"渝中区长江二路二巷30号","lonlat":"106.514942765,29.53909036","name":"六十六中","phone":"023-63300912","lon":106.514942765,"lat":29.53909036},{"address":"渝中区枇杷山后街70号","lonlat":"106.556941609,29.554387351","name":"重庆市第五十中学校","phone":"023-63538693","lon":106.556941609,"lat":29.554387351},{"address":"渝中区七星岗华一路41号","lonlat":"106.562222,29.561014","name":"实验学校","phone":"023-63327196","lon":106.562222,"lat":29.561014},{"address":"渝中区桂花园路39号","lonlat":"106.536414108,29.557502411","name":"五十七中学校","phone":"023-86589458","lon":106.536414108,"lat":29.557502411},{"address":"渝中区新华路155号","lonlat":"106.578541284,29.560625849","name":"鼓楼学校","phone":"023-63910177","lon":106.578541284,"lat":29.560625849},{"address":"渝中区中山四路69号","lonlat":"106.541861986,29.56581796","name":"求精中学","phone":"023-63006187","lon":106.541861986,"lat":29.56581796},{"address":"渝中区凯旋路22号","lonlat":"106.573066,29.554207","name":"复旦中学（凯旋路校区）","phone":"023-60334020","lon":106.573066,"lat":29.554207},{"address":"渝中区大坪长江支路5号","lonlat":"106.518414,29.544069","name":"大坪中学校","phone":"023-63638991","lon":106.518414,"lat":29.544069},{"address":"渝中区交农村240号","lonlat":"106.50128,29.551958","name":"二十九中学校（红岩村校区）","phone":"023-86119800","lon":106.50128,"lat":29.551958},{"address":null,"lonlat":"106.577629254,29.556315853","name":"渝中区文化街中学","phone":null,"lon":106.577629254,"lat":29.556315853},{"address":"渝中区蔡家石堡28号","lonlat":"106.56417,29.553484","name":"杏林中学校","phone":"023-63650393","lon":106.56417,"lat":29.553484},{"address":"渝中区长江一路13号","lonlat":"106.541358397,29.553788209","name":"三十中学校","phone":"023-63628839","lon":106.541358397,"lat":29.553788209},{"address":"渝中区邹容路143号","lonlat":"106.56941722,29.561343995","name":"二十九中（解放碑校区）","phone":"023-86119800","lon":106.56941722,"lat":29.561343995},{"address":"渝中区平安街159号","lonlat":"106.52621936,29.542757275","name":"复旦中学（竹园校区）","phone":"023-60334021","lon":106.52621936,"lat":29.542757275},{"address":"渝中区大溪沟街道华福巷社区华福巷52号","lonlat":"106.553182789,29.560688536","name":"重庆四十二中","phone":"023-63580393","lon":106.553182789,"lat":29.560688536},{"address":"渝中区北区路51号","lonlat":"106.556281863,29.562792254","name":"巴蜀中学校","phone":"023-63002371","lon":106.556281863,"lat":29.562792254}]
